{
"type": "FeatureCollection",
"crs": { "type": "name", "properties": { "name": "urn:ogc:def:crs:OGC:1.3:CRS84" } },
                                                                                
"features": [
{ "type": "Feature", "properties": { "ID": 365, "Tipo_centr": "Centro de salud", "Nombre": "Levante-Norte de Córdoba", "Zona_basic": "Córdoba", "Distrito": "Córdoba", "Direccion_": "AV Carlos III, s\/n", "Localidad": "CORDOBA", "Municipio": "Córdoba", "Provincia": "Córdoba", "COD_ENT": "s01" }, "geometry": { "type": "Point", "coordinates": [ -4.755530000000394, 37.896699999996187 ] } },
{ "type": "Feature", "properties": { "ID": 366, "Tipo_centr": "Centro de salud", "Nombre": "Centro de Córdoba", "Zona_basic": "Córdoba", "Distrito": "Córdoba", "Direccion_": "PZ Colon, 30", "Localidad": "CORDOBA", "Municipio": "Córdoba", "Provincia": "Córdoba", "COD_ENT": "s01" }, "geometry": { "type": "Point", "coordinates": [ -4.777610000000432, 37.889399999996051 ] } },
{ "type": "Feature", "properties": { "ID": 367, "Tipo_centr": "Centro de salud", "Nombre": "Fuensanta", "Zona_basic": "Córdoba", "Distrito": "Córdoba", "Direccion_": "CL Nuñez de Balboa, s\/n", "Localidad": "CORDOBA", "Municipio": "Córdoba", "Provincia": "Córdoba", "COD_ENT": "s01" }, "geometry": { "type": "Point", "coordinates": [ -4.758440000000399, 37.884099999996181 ] } },
{ "type": "Feature", "properties": { "ID": 368, "Tipo_centr": "Centro de salud", "Nombre": "Huerta de la Reina", "Zona_basic": "Córdoba", "Distrito": "Córdoba", "Direccion_": "CL Beatriz Enriquez, 1", "Localidad": "CORDOBA", "Municipio": "Córdoba", "Provincia": "Córdoba", "COD_ENT": "s01" }, "geometry": { "type": "Point", "coordinates": [ -4.784420000000444, 37.893799999996006 ] } },
{ "type": "Feature", "properties": { "ID": 369, "Tipo_centr": "Centro de salud", "Nombre": "Guadalquivir", "Zona_basic": "Córdoba", "Distrito": "Córdoba", "Direccion_": "CL Joaquin Dasilva, s\/n", "Localidad": "CORDOBA", "Municipio": "Córdoba", "Provincia": "Córdoba", "COD_ENT": "s01" }, "geometry": { "type": "Point", "coordinates": [ -4.778970000000436, 37.86119999999606 ] } },
{ "type": "Feature", "properties": { "ID": 370, "Tipo_centr": "Consultas externas", "Nombre": "CPE Sector Sur (Santa Victoria)", "Zona_basic": "Córdoba", "Distrito": "Córdoba", "Direccion_": "CL Huelva, 4", "Localidad": "CORDOBA", "Municipio": "Córdoba", "Provincia": "Córdoba", "COD_ENT": "s01" }, "geometry": { "type": "Point", "coordinates": [ -4.7799127514821, 37.868084402578909 ] } },
{ "type": "Feature", "properties": { "ID": 371, "Tipo_centr": "Centro de salud", "Nombre": "La Marina (Figueroa)", "Zona_basic": "Córdoba", "Distrito": "Córdoba", "Direccion_": "PZ Marina Española, s\/n", "Localidad": "CORDOBA", "Municipio": "Córdoba", "Provincia": "Córdoba", "COD_ENT": "s01" }, "geometry": { "type": "Point", "coordinates": [ -4.802560000000478, 37.891399999995897 ] } },
{ "type": "Feature", "properties": { "ID": 372, "Tipo_centr": "Centro de salud", "Nombre": "Occidente Azahara", "Zona_basic": "Córdoba", "Distrito": "Córdoba", "Direccion_": "CL Del Campo, s\/n", "Localidad": "CORDOBA", "Municipio": "Córdoba", "Provincia": "Córdoba", "COD_ENT": "s01" }, "geometry": { "type": "Point", "coordinates": [ -4.815390000000504, 37.879599999995811 ] } },
{ "type": "Feature", "properties": { "ID": 373, "Tipo_centr": "Centro de salud", "Nombre": "Santa Rosa", "Zona_basic": "Córdoba", "Distrito": "Córdoba", "Direccion_": "CL Cruz de Juárez, s\/n", "Localidad": "CORDOBA", "Municipio": "Córdoba", "Provincia": "Córdoba", "COD_ENT": "s01" }, "geometry": { "type": "Point", "coordinates": [ -4.780330000000435, 37.894999999996031 ] } },
{ "type": "Feature", "properties": { "ID": 374, "Tipo_centr": "Centro de salud", "Nombre": "Levante Sur", "Zona_basic": "Córdoba", "Distrito": "Córdoba", "Direccion_": "CL Sagunto (Antiguo Cuartel de Lepanto)", "Localidad": "CORDOBA", "Municipio": "Córdoba", "Provincia": "Córdoba", "COD_ENT": "s01" }, "geometry": { "type": "Point", "coordinates": [ -4.76456000000041, 37.892099999996141 ] } },
{ "type": "Feature", "properties": { "ID": 394, "Tipo_centr": "Centro de salud", "Nombre": "Aeropuerto", "Zona_basic": "Córdoba", "Distrito": "Córdoba", "Direccion_": "AV AEROPUERTO (DEL)", "Localidad": "CORDOBA", "Municipio": "Córdoba", "Provincia": "Córdoba", "COD_ENT": "s01" }, "geometry": { "type": "Point", "coordinates": [ -4.796562000000468, 37.875869999995949 ] } },
{ "type": "Feature", "properties": { "ID": 396, "Tipo_centr": "Centro de salud", "Nombre": "Poniente", "Zona_basic": "Córdoba", "Distrito": "Córdoba", "Direccion_": "CL RAFAEL MARQUEZ MAZZANTINI", "Localidad": "CORDOBA", "Municipio": "Córdoba", "Provincia": "Córdoba", "COD_ENT": "s01" }, "geometry": { "type": "Point", "coordinates": [ -4.795360000000465, 37.880499999995941 ] } },
{ "type": "Feature", "properties": { "ID": 398, "Tipo_centr": "Centro de salud", "Nombre": "Lucano", "Zona_basic": "Córdoba", "Distrito": "Córdoba", "Direccion_": "CL LUCANO", "Localidad": "CORDOBA", "Municipio": "Córdoba", "Provincia": "Córdoba", "COD_ENT": "s01" }, "geometry": { "type": "Point", "coordinates": [ -4.775330000000428, 37.880099999996077 ] } },
{ "type": "Feature", "properties": { "ID": 444, "Tipo_centr": "Consultorio local", "Nombre": "Encinarejo", "Zona_basic": "Córdoba", "Distrito": "Córdoba", "Direccion_": "PZ AUTONOMIA DE LA, s\/n", "Localidad": "ENCINAREJO DE CORDOBA", "Municipio": "Córdoba", "Provincia": "Córdoba", "COD_ENT": "s04" }, "geometry": { "type": "Point", "coordinates": [ -4.927894000000781, 37.831945999994929 ] } },
{ "type": "Feature", "properties": { "ID": 445, "Tipo_centr": "Consultorio local", "Nombre": "El Higuerón", "Zona_basic": "Córdoba", "Distrito": "Córdoba", "Direccion_": "AV PRINCIPAL DEL HIGUERON", "Localidad": "HIGUERON (EL)", "Municipio": "Córdoba", "Provincia": "Córdoba", "COD_ENT": "s04" }, "geometry": { "type": "Point", "coordinates": [ -4.851140000000582, 37.869299999995555 ] } },
{ "type": "Feature", "properties": { "ID": 447, "Tipo_centr": "Consultorio local", "Nombre": "Alcolea", "Zona_basic": "Córdoba", "Distrito": "Córdoba", "Direccion_": "CL Haza del Demonio, s\/n", "Localidad": "ALCOLEA", "Municipio": "Córdoba", "Provincia": "Córdoba", "COD_ENT": "s04" }, "geometry": { "type": "Point", "coordinates": [ -4.67264000000027, 37.933299999996592 ] } },
{ "type": "Feature", "properties": { "ID": 448, "Tipo_centr": "Consultorio local", "Nombre": "Cerro Muriano", "Zona_basic": "Córdoba", "Distrito": "Córdoba", "Direccion_": "CL Rogelio Benitez, s\/n", "Localidad": "CERRO MURIANO", "Municipio": "Córdoba", "Provincia": "Córdoba", "COD_ENT": "s04" }, "geometry": { "type": "Point", "coordinates": [ -4.774170000000418, 38.003599999996027 ] } },
{ "type": "Feature", "properties": { "ID": 450, "Tipo_centr": "Consultorio local", "Nombre": "Barriada el Naranjo", "Zona_basic": "Córdoba", "Distrito": "Córdoba", "Direccion_": "CL PARROCO AGUSTIN MOLINA, 21", "Localidad": "CORDOBA", "Municipio": "Córdoba", "Provincia": "Córdoba", "COD_ENT": "s04" }, "geometry": { "type": "Point", "coordinates": [ -4.780190000000435, 37.909299999996016 ] } },
{ "type": "Feature", "properties": { "ID": 451, "Tipo_centr": "Consultorio local", "Nombre": "Santa Cruz", "Zona_basic": "Córdoba", "Distrito": "Córdoba", "Direccion_": "PZ Andalucia, s\/n", "Localidad": "CORDOBA", "Municipio": "Córdoba", "Provincia": "Córdoba", "COD_ENT": "s04" }, "geometry": { "type": "Point", "coordinates": [ -4.810000000000493, 37.883999999995837 ] } },
{ "type": "Feature", "properties": { "ID": 452, "Tipo_centr": "Consultorio local", "Nombre": "Barriada de los Ángeles", "Zona_basic": "Córdoba", "Distrito": "Córdoba", "Direccion_": "CL Herreria, s\/n", "Localidad": "CORDOBA", "Municipio": "Córdoba", "Provincia": "Córdoba", "COD_ENT": "s04" }, "geometry": { "type": "Point", "coordinates": [ -4.655080000000249, 37.926899999996692 ] } },
{ "type": "Feature", "properties": { "ID": 478, "Tipo_centr": "Consultorio local", "Nombre": "Villarrubia", "Zona_basic": "Córdoba", "Distrito": "Córdoba", "Direccion_": "PZ De los Rios, s\/n", "Localidad": "VILLARRUBIA", "Municipio": "Córdoba", "Provincia": "Córdoba", "COD_ENT": "s04" }, "geometry": { "type": "Point", "coordinates": [ -4.911810000000734, 37.849399999995057 ] } },
{ "type": "Feature", "properties": { "ID": 501, "Tipo_centr": "Consultorio local", "Nombre": "Sta. Mª de Trassierra", "Zona_basic": "Córdoba", "Distrito": "Córdoba", "Direccion_": "CL Sta. Mª de Trassierra, s\/n", "Localidad": "SANTA MARIA DE TRASSIERRA", "Municipio": "Córdoba", "Provincia": "Córdoba", "COD_ENT": "s04" }, "geometry": { "type": "Point", "coordinates": [ -4.902720000000703, 37.929599999995098 ] } },
{ "type": "Feature", "properties": { "ID": 11, "Tipo_centr": "Consultas externas", "Nombre": "CPE Avenida de América", "Zona_basic": "Córdoba", "Distrito": "Córdoba", "Direccion_": "Avda. de América, 1", "Localidad": "CÓRDOBA", "Municipio": "Córdoba", "Provincia": "Córdoba", "COD_ENT": "s02" }, "geometry": { "type": "Point", "coordinates": [ -4.781231376555348, 37.891054753426587 ] } }
]
}
