{
"type": "FeatureCollection",
"crs": { "type": "name", "properties": { "name": "urn:ogc:def:crs:OGC:1.3:CRS84" } },
                                                                                
"features": [
{ "type": "Feature", "properties": { "NOMBRE": "Complejo Hospitalario Regional Reina Sofía", "NOMBRE2": "Hospital Provincial de Córdoba", "GESTION": "S.A.S.", "COD_MUN": "14021", "CONCERTADO": "Pub", "COD_ENT": "s05" }, "geometry": { "type": "Point", "coordinates": [ -4.791756664555328, 37.868669440648624 ] } },
{ "type": "Feature", "properties": { "NOMBRE": "Complejo Hospitalario Regional Reina Sofía", "NOMBRE2": "Hospital General Reina Sofía", "GESTION": "S.A.S.", "COD_MUN": "14021", "CONCERTADO": "Pub", "COD_ENT": "s05" }, "geometry": { "type": "Point", "coordinates": [ -4.798223336919046, 37.868095229248276 ] } },
{ "type": "Feature", "properties": { "NOMBRE": "Complejo Hospitalario Regional Reina Sofía", "NOMBRE2": "Hospital Materno-infantil Reina Sofía", "GESTION": "S.A.S.", "COD_MUN": "14021", "CONCERTADO": "Pub", "COD_ENT": "s05" }, "geometry": { "type": "Point", "coordinates": [ -4.796963053056741, 37.867330447788042 ] } },
{ "type": "Feature", "properties": { "NOMBRE": "Hospital La Arruzafa - Instituto de Oftalmología", "NOMBRE2": null, "GESTION": "Privado", "COD_MUN": "14021", "CONCERTADO": "No", "COD_ENT": "s07" }, "geometry": { "type": "Point", "coordinates": [ -4.792873108486449, 37.90433345839805 ] } },
{ "type": "Feature", "properties": { "NOMBRE": "Hospital San Juan de Dios de Córdoba", "NOMBRE2": null, "GESTION": "Privado Benéfico", "COD_MUN": "14021", "CONCERTADO": "Si", "COD_ENT": "s06" }, "geometry": { "type": "Point", "coordinates": [ -4.793307523180627, 37.90977901367733 ] } },
{ "type": "Feature", "properties": { "NOMBRE": "Hospital Cruz Roja de Córdoba", "NOMBRE2": null, "GESTION": "Privado Benéfico", "COD_MUN": "14021", "CONCERTADO": "No", "COD_ENT": "s07" }, "geometry": { "type": "Point", "coordinates": [ -4.784532213357168, 37.880220166684282 ] } }
]
}
